website,City,Name,Str,DealerNr,PLZ2,Trail,Phone,Plz,Latitude,Longitude,Completed,DealerFactor
http:/www.amore-automobile.de,Berlin,Amore Automobile Moresco e.K.,Mariannenstraße 9-10,1,10,Collaborative Campaigns,+49 30 6167040,10999,52.499662,13.42247,50,1.88
http:/www.vw-autohausberlinpankow.de,Berlin,ASB Autohaus Berlin GmbH Berliner Str.,Berliner Straße 100,2,13,Collaborative Campaigns,+49 30 479950,13189,52.368868,13.470358,58,1.54
http:/www.vw.volkswagen-automobile-berlin.de,Berlin,Volkswagen Automobile Berlin GmbH Franklinstr.,Franklinstr. 5,3,10,Collaborative Campaigns,+49 30 89081200,10587,52.464207,13.404865,52,1.58
,Berlin,Andreas Witt GmbH,Strausberger Straße 1 u. 2,4,13,Collaborative Campaigns,+49 30 9710790,13055,52.541452,13.488173,55,1.83
http:/www.vw.volkswagen-automobile-berlin.de,Berlin,Volkswagen Automobile Berlin GmbH Oberlandstr.,Oberlandstr. 40-41,5,12,Collaborative Campaigns,+49 30 89081000,12099,52.52045,13.40732,54,1.19
http:/www.volkswagen-service-autohaus-europa.de,Berlin,J.H. Auto(h)aus Europa GmbH,Siegfriedstraße 150,6,10,Collaborative Campaigns,+49 30 5779930,10365,52.528827,13.499454,60,1.8
http:/www.autohaus-thomas-kapinsky.de,Berlin,Autohaus Thomas Kapinsky GmbH & Co. KG,Blankenburger Straße 95,7,13,Collaborative Campaigns,+49 30 4789960,13089,52.573267,13.443985,67,1.06
,Berlin,Willi Britsch GmbH,Grenzallee 100,8,12,Collaborative Campaigns,+49 30 689850,12057,52.464327,13.446074,57,0.89
http:/www.volkswagen-moebus.de,Berlin,Autohaus Möbus GmbH,Hansastraße 202,9,13,Collaborative Campaigns,+49 30 9627620,13088,52.557932,13.492706,60,1.75